{"lat": "13.0173108883", "stopName": "A.M.S.HOSPITAL", "lng": "80.2602767944"}
{"lat": "12.9637014634", "stopName": "A.V.CONSTRUCTION", "lng": "80.215344429"}
{"lat": "13.1844206937", "stopName": "AAYURVEDA ASHRAMAM", "lng": "80.1920843124"}
{"lat": "12.9892531084", "stopName": "ADAMBAKKAM P.S", "lng": "80.2049160004"}
{"lat": "13.2213133012", "stopName": "ADI DRAVIDAR HOSTEL", "lng": "80.0260448456"}
{"lat": "13.0288717771", "stopName": "ADYAR GATE", "lng": "80.2496981621"}
{"lat": "13.1179331114", "stopName": "AGARAM", "lng": "80.2278327942"}
{"lat": "12.8836840345", "stopName": "AGARAM THEN", "lng": "80.1559925079"}
{"lat": "13.1635695211", "stopName": "AIRFORCE STATION", "lng": "80.0992584229"}
{"lat": "12.9875385958", "stopName": "ALAGESA NAGAR", "lng": "80.0644540787"}
{"lat": "13.2106806129", "stopName": "ALAMADHI", "lng": "80.0975632668"}
{"lat": "13.2057923454", "stopName": "ALAMADHI OLD", "lng": "80.1174116135"}
{"lat": "12.8892898536", "stopName": "ALAPAKKAM", "lng": "80.1069831848"}
{"lat": "13.0403485089", "stopName": "ALWAR THIRUNAGAR", "lng": "80.1840591431"}
{"lat": "13.0998350082", "stopName": "AMBATHUR ESTATE", "lng": "80.1698112488"}
{"lat": "13.1715926274", "stopName": "AMBEDKAR NAGAR", "lng": "79.917640686"}
{"lat": "13.2046015987", "stopName": "AMMAN KULAM", "lng": "80.2618646622"}
{"lat": "12.9844022616", "stopName": "ANAKAPUTHUR", "lng": "80.1302433014"}
{"lat": "12.9823113501", "stopName": "ANANDA NAGAR", "lng": "80.1003742218"}
{"lat": "13.3032675933", "stopName": "ANDARKUPPAM", "lng": "80.1631164551"}
{"lat": "13.0784750273", "stopName": "ANDERSONPET", "lng": "80.0247573853"}
{"lat": "13.0301469958", "stopName": "ANGALAMMAN KOIL", "lng": "80.1801109314"}
{"lat": "13.3182394326", "stopName": "ANJATHAMMAN KOIL", "lng": "80.0533175468"}
{"lat": "13.0413937221", "stopName": "ANJUGAM SCHOOL", "lng": "80.2232837677"}
{"lat": "13.0877549333", "stopName": "ANNA NAGAR", "lng": "80.2182197571"}
{"lat": "13.0847661729", "stopName": "ANNA NAGAR CIRCLE", "lng": "80.2142500877"}
{"lat": "13.0846668953", "stopName": "ANNA NAGAR EAST", "lng": "80.2177637815"}
{"lat": "13.0929381522", "stopName": "ANNA NAGAR WEST", "lng": "80.1987361908"}
{"lat": "13.068316892", "stopName": "ANNA POORNA HOTEL/DAMS RD", "lng": "80.2694606781"}
{"lat": "13.0667283393", "stopName": "ANNA ROAD P.O./DAMS ROAD", "lng": "80.2684521675"}
{"lat": "13.0656832332", "stopName": "ANNA SQUARE", "lng": "80.2838802338"}
{"lat": "13.0078192673", "stopName": "ANNA UNIVERSITY", "lng": "80.235042572"}
{"lat": "13.1035968482", "stopName": "ANNAMBEDU", "lng": "80.0583600998"}
{"lat": "13.3308300951", "stopName": "ARANI", "lng": "80.0867271423"}
{"lat": "12.8777434028", "stopName": "ARASANKAZHANI", "lng": "80.1926422119"}
{"lat": "13.2061474792", "stopName": "ARIYALUR", "lng": "80.2499341965"}
{"lat": "13.0760086872", "stopName": "ARUMBAKKAM", "lng": "80.1990795135"}
{"lat": "13.2090303113", "stopName": "ASHOK LAYLAND", "lng": "80.316324234"}
{"lat": "13.2073591085", "stopName": "ASHOK LEYLAND MARK.DIV.", "lng": "80.3215169907"}
{"lat": "13.1201900563", "stopName": "AVADI", "lng": "80.1022624969"}
{"lat": "13.1197721051", "stopName": "AVADI CIRCLE", "lng": "80.1032924652"}
{"lat": "13.1145058592", "stopName": "AVADI MOSQUE", "lng": "80.1080989838"}
{"lat": "13.0090528", "stopName": "AVVAI HOME", "lng": "80.2611083"}
{"lat": "13.0803979194", "stopName": "AYANAMBAKKAM", "lng": "80.1494693756"}
{"lat": "13.0977032733", "stopName": "AYANAVARAM B.S", "lng": "80.2407932281"}
{"lat": "13.095278925", "stopName": "AYAPAKKAM", "lng": "80.1308441162"}
{"lat": "13.0973688819", "stopName": "AYYAPPA NAGAR", "lng": "80.1455640793"}
{"lat": "12.9080307849", "stopName": "BALAJI NAGAR (BHARATH ENG", "lng": "80.1426029205"}
{"lat": "13.0002507981", "stopName": "BESANT NAGAR", "lng": "80.2666926384"}
{"lat": "13.0537269047", "stopName": "BHARATHI NAGAR(PERIYAR PA", "lng": "80.2345275879"}
{"lat": "12.7794097272", "stopName": "BOROSIL COMPANY", "lng": "80.0221824646"}
{"lat": "12.9820604395", "stopName": "BRINDAVAN COLONY", "lng": "80.2046585083"}
{"lat": "13.0874205284", "stopName": "BROADWAY", "lng": "80.2839231491"}
{"lat": "13.1475225204", "stopName": "BUILDERS INDUSTRY", "lng": "80.3018188477"}
{"lat": "12.9921802977", "stopName": "BURIAL GROUND", "lng": "80.1933288574"}
{"lat": "13.1246202952", "stopName": "BURMAH SHELL PETROL BUNK", "lng": "80.2946090698"}
{"lat": "13.1446102323", "stopName": "BUS BAY-17TH KM", "lng": "80.2201321721"}
{"lat": "13.0070666122", "stopName": "BUTT ROAD", "lng": "80.1977062225"}
{"lat": "13.038843394", "stopName": "C.I.T.COLONY", "lng": "80.2571868896"}
{"lat": "13.0671881845", "stopName": "C.M.B.T.", "lng": "80.2051734924"}
{"lat": "13.1563819319", "stopName": "C.R.P.F", "lng": "80.0929069519"}
{"lat": "12.9223365326", "stopName": "CAMP ROAD", "lng": "80.1429462433"}
{"lat": "13.0305409", "stopName": "CEMENTRY (MANDAVELI)", "lng": "80.2628849"}
{"lat": "13.0816519714", "stopName": "CENTRAL", "lng": "80.2758550644"}
{"lat": "13.0407247861", "stopName": "CHEMBARAMBAKKAM", "lng": "80.0577163696"}
{"lat": "13.0640946634", "stopName": "CHEPAUK", "lng": "80.2834510803"}
{"lat": "13.1859667018", "stopName": "CHETTIMEDU", "lng": "80.2218675613"}
{"lat": "12.983022262", "stopName": "CHIDAMBARAM STORES", "lng": "80.1884579659"}
{"lat": "13.0624224737", "stopName": "CHINMAYA NAGAR", "lng": "80.1969337463"}
{"lat": "12.8864660425", "stopName": "CHITHALAPAKKAM", "lng": "80.1873850822"}
{"lat": "12.8903566184", "stopName": "CHITLAPAKKAM", "lng": "80.1845955849"}
{"lat": "12.9336717917", "stopName": "CHITLAPAKKAM B.S", "lng": "80.1483535767"}
{"lat": "13.0893433507", "stopName": "CHITTUKADU", "lng": "80.0570726395"}
{"lat": "12.9226711602", "stopName": "CHOLA MANDAL", "lng": "80.2510499954"}
{"lat": "13.0906809574", "stopName": "CHOOLAI MILL", "lng": "80.2586460114"}
{"lat": "13.0901793557", "stopName": "CHOOLAI P.O", "lng": "80.2652549744"}
{"lat": "12.8647320907", "stopName": "CHURCH", "lng": "80.2265024185"}
{"lat": "13.0157638207", "stopName": "CIPET", "lng": "80.2050876617"}
{"lat": "13.1015696416", "stopName": "CLIVE BATTERY", "lng": "80.2943301201"}
{"lat": "13.0114152546", "stopName": "CONCORDE", "lng": "80.2231550217"}
{"lat": "12.9228384738", "stopName": "CONVENT", "lng": "80.1273679733"}
{"lat": "13.1704226074", "stopName": "CORBORUNDUM UNIVERSAL", "lng": "80.3112602234"}
{"lat": "13.064355942", "stopName": "CORPN. PLAY GROUND", "lng": "80.2675294876"}
{"lat": "13.0568623615", "stopName": "CORPORATION SCHOOL/OFFICE", "lng": "80.2425527573"}
{"lat": "13.1715926274", "stopName": "CYCLE SHOP", "lng": "80.2198076248"}
{"lat": "13.0457417618", "stopName": "D.M.S", "lng": "80.2481532097"}
{"lat": "13.0674390089", "stopName": "D.P.I", "lng": "80.2512645721"}
{"lat": "13.0974106808", "stopName": "DASAMAHAN", "lng": "80.2592468262"}
{"lat": "13.0787206", "stopName": "DASAPRAKASH", "lng": "80.2545744"}
{"lat": "13.0585241375", "stopName": "DASARATHAPURAM", "lng": "80.2038109303"}
{"lat": "13.0260077374", "stopName": "DEFENCE COLONY", "lng": "80.1999163628"}
{"lat": "13.0310250114", "stopName": "DEFENCE QUARTERS", "lng": "80.2399778366"}
{"lat": "13.0789453012", "stopName": "DHARMAPRAKASH/PETROL BUNK", "lng": "80.2546012402"}
{"lat": "13.0873369271", "stopName": "DOVETON", "lng": "80.258731842"}
{"lat": "13.0793110692", "stopName": "DRY CATTLLE FORM", "lng": "80.2585601807"}
{"lat": "13.1045581981", "stopName": "DUNLOP", "lng": "80.1530742645"}
{"lat": "13.2035152985", "stopName": "ECHANKUZHI", "lng": "80.2698040009"}
{"lat": "13.0798962968", "stopName": "EGMORE", "lng": "80.2614355087"}
{"lat": "13.0798544949", "stopName": "EGMORE NORTH R.S.", "lng": "80.2614355087"}
{"lat": "13.0217847863", "stopName": "EKKATTUTHANGAL", "lng": "80.2062892914"}
{"lat": "13.157259", "stopName": "ELLAIAMMAN KOIL", "lng": "80.301476"}
{"lat": "13.0074011258", "stopName": "ENG.COLLEGE", "lng": "80.2378320694"}
{"lat": "13.2165505826", "stopName": "ENNORE", "lng": "80.320186615"}
{"lat": "13.1854652949", "stopName": "ERNAVOOR GATE", "lng": "80.3093719482"}
{"lat": "13.0381326422", "stopName": "F.C.I OLD", "lng": "80.2567148209"}
{"lat": "13.0448428945", "stopName": "FIVE LAMPS", "lng": "80.2257084846"}
{"lat": "12.7857711943", "stopName": "FORD", "lng": "80.0142002106"}
{"lat": "13.0224637", "stopName": "FORE SHORE ESTATE", "lng": "80.2762973"}
{"lat": "13.1113293388", "stopName": "G.K.M.COLONY", "lng": "80.2171039581"}
{"lat": "13.1097410633", "stopName": "GANESH PURAM", "lng": "80.2591609955"}
{"lat": "13.0518456116", "stopName": "GEMINI P.H", "lng": "80.2502775192"}
{"lat": "13.0980376643", "stopName": "GOVARDANAGIRI", "lng": "80.1080989838"}
{"lat": "13.0315267332", "stopName": "GOVT. GIRLS H.SC", "lng": "80.213842392"}
{"lat": "13.1856324306", "stopName": "GRAND LINE", "lng": "80.2030277252"}
{"lat": "12.8448582056", "stopName": "GUDUVANCHERY", "lng": "80.0610637665"}
{"lat": "13.0091155013", "stopName": "GUINDY R.S", "lng": "80.2121043205"}
{"lat": "13.009491826", "stopName": "GUINDY TVK ESTATE", "lng": "80.2109241486"}
{"lat": "12.9914275952", "stopName": "GURUNANAK COLLEGE", "lng": "80.2195072174"}
{"lat": "13.1465195479", "stopName": "H.V.F.MAIN GATE", "lng": "80.0862979889"}
{"lat": "12.9403221284", "stopName": "HASTHINAPURAM", "lng": "80.1507139206"}
{"lat": "13.085539492", "stopName": "HIGH COURT", "lng": "80.2852106094"}
{"lat": "12.9847368058", "stopName": "HINDY VIDYALAYA", "lng": "80.207233429"}
{"lat": "13.0724554421", "stopName": "HOTEL ARUN", "lng": "80.2212238312"}
{"lat": "13.1001275978", "stopName": "I.C.F", "lng": "80.2149581909"}
{"lat": "13.1834596566", "stopName": "I.C.I.", "lng": "80.3165817261"}
{"lat": "13.1390807079", "stopName": "I.O.C", "lng": "80.2818632126"}
{"lat": "12.9813913435", "stopName": "I.R.T. RD.JN.", "lng": "80.2431106567"}
{"lat": "13.0963657048", "stopName": "ICF ANNEXE", "lng": "80.2189922333"}
{"lat": "12.99502382", "stopName": "INDIRA NAGAR WATER TANK", "lng": "80.2524232864"}
{"lat": "12.9159785236", "stopName": "INJAMBAKKAM", "lng": "80.2504491806"}
{"lat": "13.0420208479", "stopName": "IRULAPALAYAM", "lng": "80.0038146973"}
{"lat": "13.0366693231", "stopName": "IRULAPALAYAM RD JN.", "lng": "80.0429534912"}
{"lat": "12.9114608926", "stopName": "IRUMBULIYUR", "lng": "80.1013183594"}
{"lat": "13.0283073339", "stopName": "JAFFARKHAN PET", "lng": "80.2083492279"}
{"lat": "13.104725389", "stopName": "JAMALAYA", "lng": "80.2533245087"}
{"lat": "12.9357631117", "stopName": "JAYENDIRA NAGAR", "lng": "80.1641464233"}
{"lat": "13.0439440239", "stopName": "JN OF III AND 1ST AVE", "lng": "80.2122974396"}
{"lat": "13.0751308314", "stopName": "JN. OF R.GARDEN & PEVR H.", "lng": "80.2160739899"}
{"lat": "12.8992461481", "stopName": "JN.OF MAMBAKKAM & O.BAKKA", "lng": "80.1828575134"}
{"lat": "13.136322429", "stopName": "JN.OF MANALI RD.CHINNA KO", "lng": "80.2565002441"}
{"lat": "13.0066902838", "stopName": "JN.OF RACE COURSE RD", "lng": "80.2127695084"}
{"lat": "12.9486870799", "stopName": "JN.OF.ARTERIAL RD WITH 40", "lng": "80.209980011"}
{"lat": "12.9938947783", "stopName": "JN.OF.PALAVANTHANGAL &GST;", "lng": "80.1855611801"}
{"lat": "12.9203287578", "stopName": "JN.OF.VLY-TBM RD&MVKM-K.K;", "lng": "80.1838874817"}
{"lat": "13.0440485439", "stopName": "Jn.OF P.T.R Rd/KAMARAJ Rd", "lng": "80.2093148232"}
{"lat": "12.9885422143", "stopName": "KAKKAN BRIDGE", "lng": "80.2048301697"}
{"lat": "13.1328954333", "stopName": "KALLIKUPPAM", "lng": "80.1736736298"}
{"lat": "13.099124432", "stopName": "KAMABAR ARANGAM", "lng": "80.2198505402"}
{"lat": "12.9721910901", "stopName": "KAMARAJAPURAM", "lng": "80.1229906082"}
{"lat": "12.8502138495", "stopName": "KANATHUR", "lng": "80.2410507202"}
{"lat": "12.9651652128", "stopName": "KANDANCHAVADI", "lng": "80.2472734451"}
{"lat": "12.8507996161", "stopName": "KANDIGAI", "lng": "80.1403713226"}
{"lat": "12.9252645086", "stopName": "KANNAGI NAGAR S.C.BOARD", "lng": "80.2382183075"}
{"lat": "13.1202109538", "stopName": "KANNAN THEATER", "lng": "80.1410365105"}
{"lat": "13.1835432252", "stopName": "KANNIAMMAN NAGAR", "lng": "80.0896453857"}
{"lat": "12.8587073317", "stopName": "KARANAI", "lng": "80.1998949051"}
{"lat": "13.2365199554", "stopName": "KARANODAI", "lng": "80.1613998413"}
{"lat": "12.9135942286", "stopName": "KARAPAKKAM", "lng": "80.2291202545"}
{"lat": "12.8944772161", "stopName": "KARASANGAL", "lng": "80.048532486"}
{"lat": "13.0453654921", "stopName": "KARAYANCAHVADI", "lng": "80.1140213013"}
{"lat": "13.4009750009", "stopName": "KATTUR ROAD JN.", "lng": "80.2586138248"}
{"lat": "13.1707568994", "stopName": "KAVANGARAI", "lng": "80.1992511749"}
{"lat": "13.1186018379", "stopName": "KAVARAIPALAYAM", "lng": "80.0856971741"}
{"lat": "13.1365313906", "stopName": "KAVIARASU KANNADASAN NAGA", "lng": "80.2567148209"}
{"lat": "12.8305480349", "stopName": "KEERAPAKKAM", "lng": "80.1205444336"}
{"lat": "12.7896633287", "stopName": "KELAMBAKKAM", "lng": "80.2215671539"}
{"lat": "13.0856230939", "stopName": "KELLEYS", "lng": "80.2452135086"}
{"lat": "12.953705916", "stopName": "KILKATTALAI", "lng": "80.1868057251"}
{"lat": "13.0835539381", "stopName": "KILPAUK GARDEN", "lng": "80.2339267731"}
{"lat": "13.133020812", "stopName": "KODUNGAIYUR O.T.", "lng": "80.2470588684"}
{"lat": "13.1458091067", "stopName": "KODUNGAIYUR(PARVATHI NAGA", "lng": "80.2504062653"}
{"lat": "13.1337312903", "stopName": "KOILPATHAGAI RD.JN.", "lng": "80.1030349731"}
{"lat": "12.8705893565", "stopName": "KOLAPAKKAM", "lng": "80.1060390472"}
{"lat": "13.0796036832", "stopName": "KOLAPPANCHERY", "lng": "80.072350502"}
{"lat": "13.1302206716", "stopName": "KOLATHUR", "lng": "80.2138209343"}
{"lat": "13.1302415683", "stopName": "KOLATHUR/NEHRU RD JN", "lng": "80.2138638496"}
{"lat": "13.0064812122", "stopName": "KOLLAICHERI", "lng": "80.1004600525"}
{"lat": "13.2399454993", "stopName": "KONDAKKARAI", "lng": "80.2738380432"}
{"lat": "13.1272951178", "stopName": "KORATTUR", "lng": "80.1941013336"}
{"lat": "13.1193541532", "stopName": "KORUKKUPET", "lng": "80.2764558792"}
{"lat": "13.1198556954", "stopName": "KORUKKUPET R.S", "lng": "80.2767562866"}
{"lat": "13.1094066882", "stopName": "KOSAPALAYAM", "lng": "80.0233840942"}
{"lat": "13.1740997942", "stopName": "KOSAPUR RD. JN.,", "lng": "80.2383899689"}
{"lat": "13.3267376797", "stopName": "KOSAVAMPETTAI", "lng": "80.0709342957"}
{"lat": "13.2137931767", "stopName": "KOTHARI", "lng": "80.3250360489"}
{"lat": "12.9650815702", "stopName": "KOTTIVAKKAM", "lng": "80.2566719055"}
{"lat": "13.0153038798", "stopName": "KOTTUR NSK STATUE", "lng": "80.2480459213"}
{"lat": "13.0195269413", "stopName": "KOTTURPURAM", "lng": "80.2415657043"}
{"lat": "13.0967836957", "stopName": "KOTYAMEDU", "lng": "80.020980835"}
{"lat": "12.785017871", "stopName": "KOVALAM", "lng": "80.2446556091"}
{"lat": "12.8825126535", "stopName": "KOVILAMCHERRY VILLAGE", "lng": "80.1704978943"}
{"lat": "13.0696546128", "stopName": "KOYAMBEDU P.S", "lng": "80.2007102966"}
{"lat": "13.0755488584", "stopName": "KOYAMBEDU ROHINI THEATER", "lng": "80.1959896088"}
{"lat": "13.075465253", "stopName": "KOYAMBEDU SCHOOL", "lng": "80.1989936829"}
{"lat": "12.944546464", "stopName": "KUMARAN KUNDRAM", "lng": "80.1424098015"}
{"lat": "12.8878884106", "stopName": "KUMARAN NAGAR", "lng": "80.2272748947"}
{"lat": "13.0449892219", "stopName": "KUMUNANCHAVADI", "lng": "80.1158666611"}
{"lat": "12.9974386976", "stopName": "KUNDRATHUR B.S", "lng": "80.094473362"}
{"lat": "12.9862422491", "stopName": "KUNDRATHUR MURUGAN TEMPLE", "lng": "80.093164444"}
{"lat": "13.058983998", "stopName": "KUTHAMBAKKAM", "lng": "80.0294029713"}
{"lat": "13.0819654834", "stopName": "LADY MCTM SCHOOL/MILLERS", "lng": "80.2535605431"}
{"lat": "13.1017577336", "stopName": "LUCAS TVS", "lng": "80.1943159103"}
{"lat": "13.0368783692", "stopName": "LUZ", "lng": "80.267572403"}
{"lat": "13.1202736464", "stopName": "M.K.B.NAGAR", "lng": "80.2585601807"}
{"lat": "13.1183928611", "stopName": "M.K.B.NAGAR EAST", "lng": "80.2595043182"}
{"lat": "13.1525373209", "stopName": "M.M.C", "lng": "80.2429389954"}
{"lat": "13.0636766171", "stopName": "M.M.D.A.COLONY", "lng": "80.2115249634"}
{"lat": "13.0634675936", "stopName": "M.M.D.A.COLONY RD.JN.", "lng": "80.2116537094"}
{"lat": "12.897572849", "stopName": "MADAMBAKKAM KOIL", "lng": "80.160369873"}
{"lat": "13.1523701625", "stopName": "MADHAVARAM", "lng": "80.2282619476"}
{"lat": "13.1505732029", "stopName": "MADHAVARAM MILLK COLONY", "lng": "80.2419519424"}
{"lat": "13.1420061213", "stopName": "MADHAVARAM POST BOX", "lng": "80.2368235588"}
{"lat": "12.9797185955", "stopName": "MADIPAKKAM B.S", "lng": "80.1947128773"}
{"lat": "12.9690127416", "stopName": "MADIPAKKAM RD. JN.", "lng": "80.1899170876"}
{"lat": "12.8669076625", "stopName": "MADURAPAKKAM RD.JN.", "lng": "80.1757764816"}
{"lat": "13.063374", "stopName": "MADURAVOYAL", "lng": "80.16759"}
{"lat": "12.9225038464", "stopName": "MAHALAKSHMI NAGAR", "lng": "80.1434612274"}
{"lat": "13.0926037543", "stopName": "MAHARANI", "lng": "80.2088212967"}
{"lat": "12.7428281846", "stopName": "MAHENDRA CITY(CHETTY PUNN", "lng": "79.9915838242"}
{"lat": "13.1273369117", "stopName": "MALLIGAI NAGAR AVE", "lng": "80.2090358734"}
{"lat": "12.7764381975", "stopName": "MALROSAPURAM", "lng": "80.0102090836"}
{"lat": "12.9332953522", "stopName": "MAMBAKKAM RDJN./VENKATAMA", "lng": "79.9069976807"}
{"lat": "12.8382680966", "stopName": "MAMBAKKAM TEMPLE", "lng": "80.1692962646"}
{"lat": "13.1650738735", "stopName": "MANALAI SEEKADU", "lng": "80.2530670166"}
{"lat": "13.1700047418", "stopName": "MANALI", "lng": "80.2571868896"}
{"lat": "13.2122055653", "stopName": "MANALI NEW TOWN", "lng": "80.2714776993"}
{"lat": "13.1607279412", "stopName": "MANALI RD JN.", "lng": "80.269203186"}
{"lat": "13.0170182006", "stopName": "MANAPAKKAM P.U.O", "lng": "80.1753044128"}
{"lat": "13.0128369096", "stopName": "MANAPAKKAM VILLAGE", "lng": "80.1681804657"}
{"lat": "13.0261331705", "stopName": "MANDAVELI", "lng": "80.2662849426"}
{"lat": "13.0310668216", "stopName": "MANGADU", "lng": "80.1109313965"}
{"lat": "12.916522307", "stopName": "MANIMANGALAM", "lng": "80.0417947769"}
{"lat": "12.9150582721", "stopName": "MANIMANGALAM RD. JN.", "lng": "80.0717926025"}
{"lat": "12.918362796", "stopName": "MANIMANGALAM VILLAGE", "lng": "80.0405502319"}
{"lat": "12.7969870747", "stopName": "MARAIMALAI NAGAR", "lng": "80.021238327"}
{"lat": "12.7903747876", "stopName": "MARAIMALAI NAGAR I.E.", "lng": "80.0333404541"}
{"lat": "13.0712849501", "stopName": "MATERNITY HOSPITAL", "lng": "80.2588284016"}
{"lat": "13.169253", "stopName": "MATHUR M.M.D.A.", "lng": "80.247831"}
{"lat": "13.1637366718", "stopName": "MATHUR RD. JN.,", "lng": "80.2280044556"}
{"lat": "12.9209143604", "stopName": "MEDAVAKKAM COLONY", "lng": "80.1969337463"}
{"lat": "12.920286929", "stopName": "MEDAVAKKAM JN.", "lng": "80.1841449738"}
{"lat": "12.8646902526", "stopName": "MELKOTTIYUR", "lng": "80.1476669312"}
{"lat": "13.0830732226", "stopName": "MELPAKKAM", "lng": "80.1086139679"}
{"lat": "13.1262920627", "stopName": "MENAMBEDU", "lng": "80.1630306244"}
{"lat": "12.8908795406", "stopName": "MEPPADU HOSPITAL", "lng": "80.1408004761"}
{"lat": "13.0314013028", "stopName": "MEPPUR", "lng": "80.0825214386"}
{"lat": "13.0837889", "stopName": "MILLERS ROAD", "lng": "80.2500317"}
{"lat": "13.2819671487", "stopName": "MINJUR", "lng": "80.2534103394"}
{"lat": "13.2689353665", "stopName": "MINJUR B.D.O", "lng": "80.2635383606"}
{"lat": "13.2823012877", "stopName": "MINJUR NEW TERMINUS", "lng": "80.253238678"}
{"lat": "13.0886745446", "stopName": "MOGAIPAIR ROAD JN.", "lng": "80.1696395874"}
{"lat": "13.0293107875", "stopName": "MOGALIVAKKAM / MARI AMMN", "lng": "80.1687812805"}
{"lat": "13.1290504543", "stopName": "MOOLAKADAI", "lng": "80.2413082123"}
{"lat": "12.9327097786", "stopName": "MOOTAKARAN CHAVADI", "lng": "80.232424736"}
{"lat": "12.9679672234", "stopName": "MOOVARASANPET", "lng": "80.1819133759"}
{"lat": "13.0197360019", "stopName": "MOULIVAKKAM", "lng": "80.1429462433"}
{"lat": "12.9132177588", "stopName": "MUDICHUR VILLAGE", "lng": "80.0707626343"}
{"lat": "12.9158948645", "stopName": "MULLAI NAGAR", "lng": "80.0577163696"}
{"lat": "13.0104535421", "stopName": "MURUGAN KOIL / GIRUGAMBAK", "lng": "80.1475811005"}
{"lat": "13.0397631875", "stopName": "MUTHUMARIAMMAN KOIL", "lng": "80.1929855347"}
{"lat": "13.0338262785", "stopName": "MYLAPORE", "lng": "80.2677440643"}
{"lat": "12.9945847488", "stopName": "N.G.O.COLONY", "lng": "80.20657897"}
{"lat": "13.0769283423", "stopName": "NADUVANKARAI", "lng": "80.2117395401"}
{"lat": "12.9606484727", "stopName": "NAGALKENI", "lng": "80.1331615448"}
{"lat": "12.9495235596", "stopName": "NALLUR", "lng": "80.0323104858"}
{"lat": "13.1843162333", "stopName": "NALLUR PUDU NAGAR", "lng": "80.0740349293"}
{"lat": "12.9870786026", "stopName": "NANDAMBAKKAM VILLAGE", "lng": "80.0641107559"}
{"lat": "12.9778158309", "stopName": "NANGANALLUR", "lng": "80.1812267303"}
{"lat": "13.2243212861", "stopName": "NAPALAYAM", "lng": "80.2734088898"}
{"lat": "12.9429780309", "stopName": "NARAYANAPURAM", "lng": "80.2076840401"}
{"lat": "13.1035968482", "stopName": "NATHAMUNI TALKIES", "lng": "80.2032423019"}
{"lat": "12.8458205563", "stopName": "NAVALUR", "lng": "80.2265024185"}
{"lat": "12.8823453129", "stopName": "NEDUGUNDRAM", "lng": "80.1099872589"}
{"lat": "12.9429152934", "stopName": "NEELANKARAI", "lng": "80.2534103394"}
{"lat": "13.0781406098", "stopName": "NEMAM", "lng": "80.025100708"}
{"lat": "13.1242859403", "stopName": "NEMILICHERI", "lng": "80.0506782532"}
{"lat": "13.0715357703", "stopName": "NERKUNDRAM", "lng": "80.1860332489"}
{"lat": "12.9004174509", "stopName": "NOOTHANCHERI", "lng": "80.170841217"}
{"lat": "12.8978238446", "stopName": "NOOTHANCHERI CROSS RD.", "lng": "80.1706695557"}
{"lat": "12.8764464856", "stopName": "NUCLEUS COMPANY", "lng": "80.2268028259"}
{"lat": "12.9375616328", "stopName": "OKKIYAM THORAIPAKKAM SEC.", "lng": "80.2419948578"}
{"lat": "13.135591062", "stopName": "ORAGADAM", "lng": "80.1582241058"}
{"lat": "13.1284653435", "stopName": "ORAGADAM O.T.", "lng": "80.1552629471"}
{"lat": "12.8620544379", "stopName": "OTTIAMBAKKAM", "lng": "80.1914405823"}
{"lat": "13.0724554421", "stopName": "P.OR & SONS", "lng": "80.2751255035"}
{"lat": "13.0995424182", "stopName": "P1.POLICE STATION", "lng": "80.2596759796"}
{"lat": "12.8863614563", "stopName": "PADAPPAI", "lng": "80.0204229355"}
{"lat": "12.9974491515", "stopName": "PADAVATTAMMAN SCHOOL", "lng": "80.200753212"}
{"lat": "13.2028885846", "stopName": "PADIYANALLUR", "lng": "80.176076889"}
{"lat": "13.0463688766", "stopName": "PADURMEDU", "lng": "80.0257873535"}
{"lat": "13.4052331411", "stopName": "PAKKAM", "lng": "80.2860689163"}
{"lat": "12.8561132937", "stopName": "PALAKKA COMPANY", "lng": "80.0691747665"}
{"lat": "12.9535595348", "stopName": "PALAVAKKAM", "lng": "80.2551269531"}
{"lat": "12.8316778148", "stopName": "PALAVASTHIC CHEMICALS", "lng": "80.2292060852"}
{"lat": "12.9103733026", "stopName": "PALLAVAN NAGAR", "lng": "80.196762085"}
{"lat": "12.9684272519", "stopName": "PALLAVARAM", "lng": "80.1498985291"}
{"lat": "13.196496011", "stopName": "PAMMADU KULAM RD.JN.", "lng": "80.1604557037"}
{"lat": "12.9746166445", "stopName": "PAMMAL", "lng": "80.1327323914"}
{"lat": "12.970852843", "stopName": "PAMMAL SANKAR NAGAR", "lng": "80.1283121109"}
{"lat": "12.8894990235", "stopName": "PANAIYUR", "lng": "80.24538517"}
{"lat": "13.2853920522", "stopName": "PANJETTI", "lng": "80.1497268677"}
{"lat": "13.0655160158", "stopName": "PARIVAKKAM", "lng": "80.0964689255"}
{"lat": "13.0887163451", "stopName": "PARRYS", "lng": "80.2902746201"}
{"lat": "13.0882369", "stopName": "PARUTHIPATTU RD. JN.", "lng": "80.1225958"}
{"lat": "13.1229485163", "stopName": "PATTABIRAM", "lng": "80.0594329834"}
{"lat": "13.2614167127", "stopName": "PATTAMANDIRI", "lng": "80.2749538422"}
{"lat": "13.0222029035", "stopName": "PATTUR", "lng": "80.120844841"}
{"lat": "12.8020089492", "stopName": "PAVENTHER SALAI", "lng": "80.0250148773"}
{"lat": "12.9917203131", "stopName": "PAZAVANTHANGAL ROAD JN.", "lng": "80.1936721802"}
{"lat": "12.9619867746", "stopName": "PAZHANTHANDALAM", "lng": "80.0764274597"}
{"lat": "13.1073168335", "stopName": "PERAMBUR B.S", "lng": "80.2443981171"}
{"lat": "13.1161776955", "stopName": "PERAMBUR MARKET", "lng": "80.2425956726"}
{"lat": "13.1081945746", "stopName": "PERAMBUR R.S", "lng": "80.2443122864"}
{"lat": "13.0980376643", "stopName": "PERIYA KOTTAMEDU", "lng": "80.0220108032"}
{"lat": "13.3082791907", "stopName": "PERIYAPALAYAM", "lng": "80.0463008881"}
{"lat": "13.2625027549", "stopName": "PERIYAPALAYAM RD JN.", "lng": "80.1547050476"}
{"lat": "13.0155965696", "stopName": "PERIYAPANICHERI", "lng": "80.136551857"}
{"lat": "13.0724972453", "stopName": "PERIYAR BRIDGE", "lng": "80.2750825882"}
{"lat": "13.1122488621", "stopName": "PERIYAR NAGAR", "lng": "80.2237987518"}
{"lat": "13.1126668261", "stopName": "PERUMALPATTU", "lng": "79.9933433533"}
{"lat": "12.9071941661", "stopName": "PERUMBAKKAM LIMIT", "lng": "80.2041435242"}
{"lat": "13.0517829015", "stopName": "PICTURE POST", "lng": "80.2201509476"}
{"lat": "13.1256233571", "stopName": "POLYTECHNIC", "lng": "80.1182699203"}
{"lat": "13.0401812743", "stopName": "PONDY BAZAAR", "lng": "80.2424240112"}
{"lat": "12.8567722656", "stopName": "PONMAR", "lng": "80.1721715927"}
{"lat": "12.9647888209", "stopName": "PONNIAMMAN KOIL RD. JN.", "lng": "80.1961183548"}
{"lat": "13.2125189104", "stopName": "POOCHIATHIBEDU", "lng": "80.087864399"}
{"lat": "13.1239933794", "stopName": "POOMBUHAR", "lng": "80.2135419846"}
{"lat": "13.0508840562", "stopName": "POONAMALLEE", "lng": "80.0949668884"}
{"lat": "12.9641614999", "stopName": "POONTHANDALAM", "lng": "80.0448417664"}
{"lat": "13.0346624715", "stopName": "PORUR", "lng": "80.1560354233"}
{"lat": "12.9894203773", "stopName": "POZHICHALUR", "lng": "80.1441478729"}
{"lat": "12.89824217", "stopName": "PRITHIYANGARA DEVI TEMPLE", "lng": "80.2353000641"}
{"lat": "12.933692705", "stopName": "PTC QUARTER / ESWARANTEMP", "lng": "80.2329397202"}
{"lat": "12.809729886", "stopName": "PUDUPAKKAM", "lng": "80.2039933205"}
{"lat": "13.1301370849", "stopName": "PUDUR", "lng": "80.1586532593"}
{"lat": "13.0436931757", "stopName": "PUDUR HIGH SCHOOL", "lng": "80.2174472809"}
{"lat": "12.734456379", "stopName": "PULIPAKKAM", "lng": "79.9859619141"}
{"lat": "13.0609174933", "stopName": "PUSHPA NAGAR", "lng": "80.2376174927"}
{"lat": "12.9192412063", "stopName": "PUSHPAGIRI RD. JN.", "lng": "80.0253582001"}
{"lat": "13.090513757", "stopName": "PUTHUCHATHIRAM", "lng": "80.0051879883"}
{"lat": "12.9740520779", "stopName": "PUZHITHIVAKKAM B.S", "lng": "80.2028346062"}
{"lat": "12.9201614425", "stopName": "Q.M ARTS (MEN)", "lng": "80.1832866669"}
{"lat": "12.9201614425", "stopName": "Q.M.ARTS COLLEGE", "lng": "80.1839733124"}
{"lat": "13.0452400688", "stopName": "Q.M.C", "lng": "80.2800178528"}
{"lat": "13.0209903617", "stopName": "RAMAPURAM", "lng": "80.1833724976"}
{"lat": "13.034160756", "stopName": "RAMAPURAM (L.N.P KOIL)", "lng": "80.183801651"}
{"lat": "13.1001275978", "stopName": "RAMASAMY NAGAR", "lng": "79.9982786179"}
{"lat": "13.190813583", "stopName": "RED HILLS", "lng": "80.1864624023"}
{"lat": "13.0944429373", "stopName": "REGAL", "lng": "80.2751255035"}
{"lat": "13.1085707484", "stopName": "ROYAPURAM P.S", "lng": "80.2916049957"}
{"lat": "13.029728892", "stopName": "S.H.B", "lng": "80.2378749847"}
{"lat": "12.9224201895", "stopName": "S.I.V.E.T", "lng": "80.1632022858"}
{"lat": "13.1201064661", "stopName": "S.R.P. COLONY", "lng": "80.224313736"}
{"lat": "12.8979911748", "stopName": "SADANANDAPURAM", "lng": "80.1081848145"}
{"lat": "13.0233736278", "stopName": "SAIDAPET", "lng": "80.2276611328"}
{"lat": "13.0297497972", "stopName": "SAIDAPET WEST", "lng": "80.2146363258"}
{"lat": "13.0302306164", "stopName": "SANTHOME P.O", "lng": "80.2768421173"}
{"lat": "13.1181002932", "stopName": "SARMA NAGAR", "lng": "80.2580451965"}
{"lat": "12.7943924005", "stopName": "SATHANKUPPAM", "lng": "80.2089071274"}
{"lat": "13.1754369393", "stopName": "SATHIYAMOORTHY NAGAR", "lng": "80.2922058105"}
{"lat": "13.0976196755", "stopName": "SAYANI/AYNAVARAM", "lng": "80.2406215668"}
{"lat": "13.1581370603", "stopName": "SCREW FACTORY", "lng": "80.20362854"}
{"lat": "13.079770891", "stopName": "SECRETARIAT", "lng": "80.2880859375"}
{"lat": "12.9984109144", "stopName": "SECRETARIAT COLONY", "lng": "80.207362175"}
{"lat": "13.2173443755", "stopName": "SEMILIVARAM", "lng": "80.169210434"}
{"lat": "13.0574058367", "stopName": "SENNEERKUPPAM", "lng": "80.1136779785"}
{"lat": "13.1174106675", "stopName": "SENTHIL NAGAR", "lng": "80.1339769363"}
{"lat": "13.0663939058", "stopName": "SHANTHI/DAMS RD.", "lng": "80.2684950829"}
{"lat": "13.093105351", "stopName": "SHIVASHANMUGAPURAM", "lng": "80.2509212494"}
{"lat": "13.2269114656", "stopName": "SHOLAVARAM", "lng": "80.165348053"}
{"lat": "13.1313072971", "stopName": "SIDCO", "lng": "80.2522516251"}
{"lat": "13.1091977035", "stopName": "SIDCO NAGAR", "lng": "80.1994228363"}
{"lat": "13.0177708255", "stopName": "SIKKARAYAPURAM", "lng": "80.1026916504"}
{"lat": "12.8339792027", "stopName": "SIRUCHERI", "lng": "80.2012252808"}
{"lat": "12.9943547589", "stopName": "SIRUKALATHUR", "lng": "80.0757408142"}
{"lat": "12.9534549766", "stopName": "SOMANGALAM", "lng": "80.0428676605"}
{"lat": "12.9747839232", "stopName": "SOMANGALAM RD /AMARAMBEDU", "lng": "80.0481033325"}
{"lat": "12.9750766607", "stopName": "SOMANGALAM RD JN/N.V.R.D.", "lng": "80.0481462479"}
{"lat": "12.8211748502", "stopName": "SONALUR / PUDUR", "lng": "80.2038002014"}
{"lat": "13.1170136094", "stopName": "SRI RAM ENGG.COLLEGE", "lng": "79.9948132038"}
{"lat": "12.9649561063", "stopName": "SRI SANKARA HEALTH CENTRE", "lng": "80.1283121109"}
{"lat": "12.9125066478", "stopName": "SRINIVASA NAGAR", "lng": "80.1554775238"}
{"lat": "13.031171347", "stopName": "SRINIVASA THEATER", "lng": "80.2243351936"}
{"lat": "12.9798858708", "stopName": "SRP TOOLS", "lng": "80.2526378632"}
{"lat": "13.0014007185", "stopName": "ST THOMAS MOUNT PO", "lng": "80.1960968971"}
{"lat": "12.9949401875", "stopName": "ST THOMAS MOUNT R.S", "lng": "80.199508667"}
{"lat": "13.0635930077", "stopName": "STERLING RD./METROLOG. DE", "lng": "80.2434539795"}
{"lat": "13.0495462338", "stopName": "SUN THEATER", "lng": "80.2476596832"}
{"lat": "13.086480012", "stopName": "SUNDARASOZHAPURAM", "lng": "80.1086568832"}
{"lat": "12.9421833544", "stopName": "SUNNAMBU KOLATHUR", "lng": "80.1912474632"}
{"lat": "13.144262845", "stopName": "SURAPEDU", "lng": "80.1884365082"}
{"lat": "13.0716820819", "stopName": "T.B.INSTITUTE", "lng": "80.2494835854"}
{"lat": "12.9393183153", "stopName": "T.B.SANATORIUM", "lng": "80.1299858093"}
{"lat": "13.0789766528", "stopName": "T.N.C.F", "lng": "80.2821207047"}
{"lat": "13.0339098979", "stopName": "T.NAGAR", "lng": "80.2302360535"}
{"lat": "13.1214857004", "stopName": "T.V.K.NAGAR", "lng": "80.2346563339"}
{"lat": "13.0588794844", "stopName": "T.V.S", "lng": "80.2591502666"}
{"lat": "13.1565490875", "stopName": "T.V.T RLY GATE", "lng": "80.2944374084"}
{"lat": "13.219224401", "stopName": "TAMARAIPAKKAM", "lng": "80.0333404541"}
{"lat": "12.9485197836", "stopName": "TAMARIND TREE", "lng": "80.1957321167"}
{"lat": "12.9269376223", "stopName": "TAMBARAM", "lng": "80.1180553436"}
{"lat": "12.9234658988", "stopName": "TAMBARAM EAST", "lng": "80.1158666611"}
{"lat": "12.9156857167", "stopName": "TAMBARAM TOWN LIMIT", "lng": "80.1045370102"}
{"lat": "12.9904658053", "stopName": "TARAMANI", "lng": "80.2506637573"}
{"lat": "13.0766984289", "stopName": "TAYLORS ROAD", "lng": "80.2380466461"}
{"lat": "13.1307221917", "stopName": "TEACHERS COLONY", "lng": "80.2024698257"}
{"lat": "13.0425225474", "stopName": "TELEGRAPH OFFICE", "lng": "80.2359008789"}
{"lat": "12.8241876977", "stopName": "THAILAPURAM", "lng": "80.039691925"}
{"lat": "12.8469502676", "stopName": "THALAMBUR", "lng": "80.2002382278"}
{"lat": "13.1027190907", "stopName": "THAMBUCHETTY ST", "lng": "80.2906608582"}
{"lat": "13.0112480005", "stopName": "THANDALAM RD JN.", "lng": "80.1263809204"}
{"lat": "13.1167628355", "stopName": "THANDARAI", "lng": "80.0633382797"}
{"lat": "13.1415046244", "stopName": "THANGAL", "lng": "80.2957248688"}
{"lat": "13.2272456803", "stopName": "THAZHANKUPPAM", "lng": "80.3261947632"}
{"lat": "13.1166792441", "stopName": "THEAGARAYA COLLEGE", "lng": "80.2838802338"}
{"lat": "13.1970809594", "stopName": "THEYAMPAKKAM", "lng": "80.233669281"}
{"lat": "12.9908003413", "stopName": "THILLAI GANGA NAGR IIND M", "lng": "80.1934576035"}
{"lat": "13.0871697244", "stopName": "THIRUMANGALAM", "lng": "80.1982212067"}
{"lat": "12.9674235521", "stopName": "THIRUMUDIVAKKAM", "lng": "80.0862550735"}
{"lat": "12.9631996045", "stopName": "THIRUNEERMALAI", "lng": "80.1163387299"}
{"lat": "13.1243695291", "stopName": "THIRUNINDRAVOOR", "lng": "80.031709671"}
{"lat": "13.1244531178", "stopName": "THIRUNINDRAVOOR RLY.STN.", "lng": "80.0265169144"}
{"lat": "12.9807222456", "stopName": "THIRUSOOLAM NATIONAL AIRP", "lng": "80.1655840874"}
{"lat": "12.9872458729", "stopName": "THIRUVANMIYUR", "lng": "80.2592468262"}
{"lat": "13.0695292018", "stopName": "THIRUVERKADU", "lng": "80.1238918304"}
{"lat": "13.1721776352", "stopName": "THIRUVETRIYUR B.S", "lng": "80.3052520752"}
{"lat": "13.1615193", "stopName": "THIRUVOTRIYUR TEMPLE", "lng": "80.3003785"}
{"lat": "12.9336299651", "stopName": "THORAPPAKKAM P.T.C COLONY", "lng": "80.2328109741"}
{"lat": "12.9488962001", "stopName": "THORAPPAKKAM TEA SHOP", "lng": "80.2407073975"}
{"lat": "13.1615193", "stopName": "THRUVOTRIYUR TEMPLE", "lng": "80.3003785"}
{"lat": "13.1435158", "stopName": "TOLLGATE", "lng": "80.2967763"}
{"lat": "13.1314744698", "stopName": "TONDAIAYRPET", "lng": "80.2919483185"}
{"lat": "13.0582001443", "stopName": "TRIPLICANE", "lng": "80.2772927284"}
{"lat": "13.0532670344", "stopName": "TRUSTPURAM", "lng": "80.2234983444"}
{"lat": "13.0524309043", "stopName": "U.S.I.S.", "lng": "80.2511358261"}
{"lat": "13.0537687111", "stopName": "UTHAMAR GANDHISALAI (CORP", "lng": "80.2500844002"}
{"lat": "12.8687903537", "stopName": "UTHANDI VILLAGE", "lng": "80.2434539795"}
{"lat": "13.105644937", "stopName": "V. NAGAR", "lng": "80.2799320221"}
{"lat": "13.0493947", "stopName": "V.HOUSE", "lng": "80.2804685"}
{"lat": "13.0510512835", "stopName": "V.HOUSE P.S", "lng": "80.2785372734"}
{"lat": "13.0476021977", "stopName": "V.M.STREET", "lng": "80.2688384056"}
{"lat": "13.060833883", "stopName": "VAANAGARAM", "lng": "80.1529026031"}
{"lat": "13.0491281628", "stopName": "VADAPALANI B.S", "lng": "80.2073192596"}
{"lat": "13.0498806901", "stopName": "VADAPALANI JN.", "lng": "80.2121257782"}
{"lat": "13.1747683676", "stopName": "VADAPERUMBAKKAM", "lng": "80.2176189423"}
{"lat": "13.2114953147", "stopName": "VADHATTUR JN.", "lng": "79.983215332"}
{"lat": "13.0419372312", "stopName": "VALASARAVAKKAM", "lng": "80.1783943176"}
{"lat": "12.9455084314", "stopName": "VALLIYUR SCHOOL", "lng": "79.922618866"}
{"lat": "13.0525145174", "stopName": "VALLUVARKOTTAM", "lng": "80.2414369583"}
{"lat": "12.8797515194", "stopName": "VANDALOOR ZOO", "lng": "80.08020401"}
{"lat": "12.9866604262", "stopName": "VANUVAMBEDU", "lng": "80.1974058151"}
{"lat": "13.0490863557", "stopName": "VARADARAJA PURAM", "lng": "80.086812973"}
{"lat": "12.9373734161", "stopName": "VARADHARAJA THEATER", "lng": "80.1388478279"}
{"lat": "12.9728602109", "stopName": "VAZHUTHALAMBEDU RD. JN", "lng": "80.1032924652"}
{"lat": "13.1142550827", "stopName": "VEENUS", "lng": "80.2328109741"}
{"lat": "12.9064412068", "stopName": "VEERABADRA NAGAR", "lng": "80.1889514923"}
{"lat": "13.1854652949", "stopName": "VEERAPURAM", "lng": "80.0834655762"}
{"lat": "13.1846087222", "stopName": "VEERAPURAM RD JN.", "lng": "80.0842165947"}
{"lat": "12.9764567044", "stopName": "VELACHERY", "lng": "80.2209663391"}
{"lat": "12.9861377047", "stopName": "VELACHERY HOSPITAL", "lng": "80.2270388603"}
{"lat": "13.1933205528", "stopName": "VELANGADUPAKKAM", "lng": "80.220580101"}
{"lat": "13.0609174933", "stopName": "VELAPPANCHAVADI", "lng": "80.1360797882"}
{"lat": "12.9327097786", "stopName": "VELLAIKAL", "lng": "80.1816558838"}
{"lat": "13.1198139002", "stopName": "VELLALA STREET", "lng": "80.1991653442"}
{"lat": "13.0676062249", "stopName": "VELLAVEDU", "lng": "80.0371170044"}
{"lat": "13.1734730049", "stopName": "VENGAL CROSS ROAD", "lng": "80.0904178619"}
{"lat": "12.8627029345", "stopName": "VENGAMBAKKAM RD JN.", "lng": "80.1268744469"}
{"lat": "13.1272951178", "stopName": "VENGATAPURAM", "lng": "80.1541900635"}
{"lat": "13.1235440888", "stopName": "VEPPAMPATTU R.S.", "lng": "79.9970018864"}
{"lat": "13.0524309043", "stopName": "VETERINARY HOSPITAL", "lng": "80.2408790588"}
{"lat": "12.9038267472", "stopName": "VETERINARY HOSPITAL/PRDCT", "lng": "80.0257873535"}
{"lat": "13.2063563813", "stopName": "VICHOOR", "lng": "80.2499771118"}
{"lat": "13.0527653567", "stopName": "VIDYODAYA", "lng": "80.2430677414"}
{"lat": "13.1155089623", "stopName": "VILINJAMBAKKAM AMMAN KOIL", "lng": "80.1075839996"}
{"lat": "13.1055613418", "stopName": "VILLIVAKKAM", "lng": "80.2077484131"}
{"lat": "13.1405852106", "stopName": "VINAYAGAPURAM", "lng": "80.2052593231"}
{"lat": "13.0997096125", "stopName": "VINAYAGAR KOIL", "lng": "80.1701974869"}
{"lat": "13.0466197221", "stopName": "VIRUGAMBAKKAM", "lng": "80.1924705505"}
{"lat": "13.1109949659", "stopName": "VYASARPADI", "lng": "80.2655982971"}
{"lat": "12.9951074525", "stopName": "WATER TANK", "lng": "80.2527666092"}
{"lat": "13.102050321", "stopName": "WEELS INDIA RD.JN.", "lng": "80.194401741"}
{"lat": "13.056402497", "stopName": "WESLEY H.S", "lng": "80.2645897865"}
{"lat": "12.9949820037", "stopName": "WOMEN'S POLYTECHNIC", "lng": "80.2495908737"}
{"lat": "13.0436827237", "stopName": "Y.M.I.A", "lng": "80.2674114704"}
